{
	"last_updated": 1462825164,
	"ttl": 60,
	"data": {
		"stations": [
			{
				"station_id": "bcycle_heartland_1916",
				"name": "62nd & Dodge",
				"lat": 41.25832,
				"lon": -96.00853,
				"address": "6200 Dodge Street"
			},
			{
				"station_id": "bcycle_heartland_1917",
				"name": "67th & Pine",
				"lat": 41.24497,
				"lon": -96.01573,
				"address": "1625 S 67th St"
			},
			{
				"station_id": "bcycle_heartland_1918",
				"name": "66th & Center",
				"lat": 41.23805,
				"lon": -96.0135,
				"address": "6600 Center Street"
			},
			{
				"station_id": "bcycle_heartland_1919",
				"name": "67th & Frances",
				"lat": 41.24009,
				"lon": -96.01512,
				"address": "2110 South 67th Street"
			},
			{
				"station_id": "bcycle_heartland_1920",
				"name": "Aksarben Drive",
				"lat": 41.24112,
				"lon": -96.01792,
				"address": "Aksarben Drive"
			},
			{
				"station_id": "bcycle_heartland_2430",
				"name": "Bob Kerrey Pedestrian Bridge",
				"lat": 41.26568,
				"lon": -95.92402,
				"address": "Bob Kerrey Pedestrian Bridge"
			},
			{
				"station_id": "bcycle_heartland_2431",
				"name": "13th & Howard",
				"lat": 41.25575,
				"lon": -95.93341,
				"address": "472 S. 13th St."
			},
			{
				"station_id": "bcycle_heartland_2432",
				"name": "1819 Farnam",
				"lat": 41.25749,
				"lon": -95.94036,
				"address": "1819 Farham St."
			},
			{
				"station_id": "bcycle_heartland_2652",
				"name": "11th & Jackson",
				"lat": 41.25431,
				"lon": -95.93036,
				"address": "1085 Jackson St."
			},
			{
				"station_id": "bcycle_heartland_2653",
				"name": "14th & Fahey",
				"lat": 41.26636,
				"lon": -95.93434,
				"address": "785 N. 14th St."
			},
			{
				"station_id": "bcycle_heartland_2655",
				"name": "1516 Cuming St",
				"lat": 41.26814,
				"lon": -95.93645,
				"address": "1516 Cuming St."
			},
			{
				"station_id": "bcycle_heartland_2881",
				"name": "Tom Hanafan River's Edge Park ",
				"lat": 41.26321,
				"lon": -95.91758,
				"address": "4398 Ave B"
			},
			{
				"station_id": "bcycle_heartland_2882",
				"name": "Ameristar",
				"lat": 41.24346,
				"lon": -95.90946,
				"address": "2200 River Road"
			},
			{
				"station_id": "bcycle_heartland_2887",
				"name": "1st & Broadway",
				"lat": 41.26309,
				"lon": -95.84385,
				"address": "103 W Broadway"
			},
			{
				"station_id": "bcycle_heartland_2888",
				"name": "Broadway & Main",
				"lat": 41.26096,
				"lon": -95.84948,
				"address": "300 W Broadway"
			},
			{
				"station_id": "bcycle_heartland_2889",
				"name": "711 S Main St",
				"lat": 41.25466,
				"lon": -95.8514,
				"address": "711 S Main St"
			},
			{
				"station_id": "bcycle_heartland_2890",
				"name": "Pearl St & Willow Ave",
				"lat": 41.25832,
				"lon": -95.85088,
				"address": "209 Pearl St"
			},
			{
				"station_id": "bcycle_heartland_2891",
				"name": "50th & Underwood",
				"lat": 41.26522,
				"lon": -95.99057,
				"address": "5002 Underwood Ave"
			},
			{
				"station_id": "bcycle_heartland_2892",
				"name": "20th & Dodge",
				"lat": 41.2596,
				"lon": -95.94211,
				"address": "1999 Dodge Street"
			},
			{
				"station_id": "bcycle_heartland_2893",
				"name": "15th & Howard",
				"lat": 41.25553,
				"lon": -95.93624,
				"address": "424 S 15 ST"
			},
			{
				"station_id": "bcycle_heartland_2894",
				"name": "16th & Douglas",
				"lat": 41.25885,
				"lon": -95.93703,
				"address": "1516 Douglas Street"
			},
			{
				"station_id": "bcycle_heartland_2895",
				"name": "9th & Jones",
				"lat": 41.25345,
				"lon": -95.92824,
				"address": "855 Jones St"
			},
			{
				"station_id": "bcycle_heartland_2896",
				"name": "10th & Dodge",
				"lat": 41.25982,
				"lon": -95.9286,
				"address": "920 Dodge Street"
			},
			{
				"station_id": "bcycle_heartland_2897",
				"name": "Midtown Crossing: 32nd & Farnam",
				"lat": 41.25784,
				"lon": -95.96009,
				"address": "3189 Farnam St"
			},
			{
				"station_id": "bcycle_heartland_2898",
				"name": "24th & Lake",
				"lat": 41.28133,
				"lon": -95.94696,
				"address": "2425 N 24th St"
			},
			{
				"station_id": "bcycle_heartland_2899",
				"name": "10th & Cass",
				"lat": 41.26398,
				"lon": -95.92947,
				"address": "456 N 10th St"
			},
			{
				"station_id": "bcycle_heartland_2900",
				"name": "14th & Douglas",
				"lat": 41.25892,
				"lon": -95.93458,
				"address": "1400 Douglas Street"
			},
			{
				"station_id": "bcycle_heartland_2901",
				"name": "10th & Farnam",
				"lat": 41.25724,
				"lon": -95.92854,
				"address": "301 S 10 ST"
			},
			{
				"station_id": "bcycle_heartland_2902",
				"name": "Lewis & Clark Landing",
				"lat": 41.26193,
				"lon": -95.92391,
				"address": "345 Riverfront Drive"
			},
			{
				"station_id": "bcycle_heartland_2903",
				"name": "The Durham Museum",
				"lat": 41.2515,
				"lon": -95.92903,
				"address": "801 S 10th St"
			},
			{
				"station_id": "bcycle_heartland_2904",
				"name": "7th & Jones",
				"lat": 41.25352,
				"lon": -95.9244,
				"address": "666 Jones St"
			}
		]
	}
}